[
    {
        "name": "ALTURAS",
        "id": 537,
        "lat": 41.4871146,
        "lng": -120.5424555
    },
    {
        "name": "ARLETA",
        "id": 587,
        "lat": 34.2504595,
        "lng": -118.4338345
    },
    {
        "name": "ARVIN",
        "id": 661,
        "lat": 35.2017986,
        "lng": -118.833105
    },
    {
        "name": "AUBURN",
        "id": 570,
        "lat": 38.8965654,
        "lng": -121.0768901
    },
    {
        "name": "BAKERSFIELD",
        "id": 529,
        "lat": 35.3732921,
        "lng": -119.0187125
    },
    {
        "name": "BAKERSFIELD SW",
        "id": 679,
        "lat": 36.778261,
        "lng": -119.4179324
    },
    {
        "name": "BANNING",
        "id": 641,
        "lat": 33.9255713,
        "lng": -116.8764103
    },
    {
        "name": "BARSTOW",
        "id": 582,
        "lat": 34.8957957,
        "lng": -117.0172826
    },
    {
        "name": "BELL GARDENS",
        "id": 576,
        "lat": 33.9652918,
        "lng": -118.1514588
    },
    {
        "name": "BELLFLOWER",
        "id": 606,
        "lat": 33.8816818,
        "lng": -118.1170117
    },
    {
        "name": "BISHOP",
        "id": 585,
        "lat": 37.3614238,
        "lng": -118.3996636
    },
    {
        "name": "BLYTHE",
        "id": 528,
        "lat": 33.6177725,
        "lng": -114.5882607
    },
    {
        "name": "BRAWLEY",
        "id": 597,
        "lat": 32.9786566,
        "lng": -115.530267
    },
    {
        "name": "CAPITOLA",
        "id": 550,
        "lat": 36.9752283,
        "lng": -121.953293
    },
    {
        "name": "CARMICHAEL",
        "id": 625,
        "lat": 38.617127,
        "lng": -121.3282843
    },
    {
        "name": "CHICO",
        "id": 520,
        "lat": 39.7284944,
        "lng": -121.8374777
    },
    {
        "name": "CHULA VISTA",
        "id": 613,
        "lat": 32.6400541,
        "lng": -117.0841955
    },
    {
        "name": "CLOVIS",
        "id": 580,
        "lat": 36.8252277,
        "lng": -119.7029194
    },
    {
        "name": "COALINGA",
        "id": 603,
        "lat": 36.139678,
        "lng": -120.3601496
    },
    {
        "name": "COLUSA",
        "id": 564,
        "lat": 39.2143343,
        "lng": -122.0094175
    },
    {
        "name": "COMPTON",
        "id": 581,
        "lat": 33.8958492,
        "lng": -118.2200712
    },
    {
        "name": "CONCORD",
        "id": 523,
        "lat": 37.9779776,
        "lng": -122.0310733
    },
    {
        "name": "CORTE MADERA",
        "id": 534,
        "lat": 37.9254806,
        "lng": -122.5274755
    },
    {
        "name": "COSTA MESA",
        "id": 628,
        "lat": 33.6411316,
        "lng": -117.9186689
    },
    {
        "name": "CRESCENT CITY",
        "id": 524,
        "lat": 30.28783,
        "lng": 120.194008
    },
    {
        "name": "CULVER CITY",
        "id": 514,
        "lat": 34.0211224,
        "lng": -118.3964665
    },
    {
        "name": "DALY CITY",
        "id": 599,
        "lat": 37.6879241,
        "lng": -122.4702079
    },
    {
        "name": "DAVIS",
        "id": 598,
        "lat": 38.5449065,
        "lng": -121.7405167
    },
    {
        "name": "DELANO",
        "id": 615,
        "lat": 35.7688425,
        "lng": -119.2470536
    },
    {
        "name": "EL CAJON",
        "id": 669,
        "lat": 32.7947731,
        "lng": -116.9625269
    },
    {
        "name": "EL CENTRO",
        "id": 527,
        "lat": 32.792,
        "lng": -115.5630514
    },
    {
        "name": "EL CERRITO",
        "id": 556,
        "lat": 37.9161326,
        "lng": -122.310765
    },
    {
        "name": "EL MONTE",
        "id": 685,
        "lat": 34.0798132,
        "lng": -118.0457971
    },
    {
        "name": "EUREKA",
        "id": 526,
        "lat": 40.8020712,
        "lng": -124.1636729
    },
    {
        "name": "FAIRFIELD",
        "id": 621,
        "lat": 38.24935809999999,
        "lng": -122.0399663
    },
    {
        "name": "FALL RIVER MILLS",
        "id": 643,
        "lat": 41.0046076,
        "lng": -121.4383139
    },
    {
        "name": "FOLSOM",
        "id": 655,
        "lat": 38.6779591,
        "lng": -121.1760583
    },
    {
        "name": "FONTANA",
        "id": 657,
        "lat": 34.0922335,
        "lng": -117.435048
    },
    {
        "name": "FORT BRAGG",
        "id": 590,
        "lat": 39.445723,
        "lng": -123.8052935
    },
    {
        "name": "FREMONT",
        "id": 644,
        "lat": 37.5482697,
        "lng": -121.9885719
    },
    {
        "name": "FRESNO",
        "id": 505,
        "lat": 36.7468422,
        "lng": -119.7725868
    },
    {
        "name": "FRESNO NORTH",
        "id": 646,
        "lat": 36.778261,
        "lng": -119.4179324
    },
    {
        "name": "FULLERTON",
        "id": 607,
        "lat": 33.8703596,
        "lng": -117.9242966
    },
    {
        "name": "GARBERVILLE",
        "id": 627,
        "lat": 40.09997449999999,
        "lng": -123.7938108
    },
    {
        "name": "GILROY",
        "id": 623,
        "lat": 37.0057816,
        "lng": -121.5682751
    },
    {
        "name": "GLENDALE",
        "id": 510,
        "lat": 34.1425078,
        "lng": -118.255075
    },
    {
        "name": "GOLETA",
        "id": 670,
        "lat": 34.4358294,
        "lng": -119.8276389
    },
    {
        "name": "GRASS VALLEY",
        "id": 541,
        "lat": 39.2190608,
        "lng": -121.0610606
    },
    {
        "name": "HANFORD",
        "id": 565,
        "lat": 36.3274502,
        "lng": -119.6456844
    },
    {
        "name": "HAWTHORNE",
        "id": 609,
        "lat": 33.9164032,
        "lng": -118.3525748
    },
    {
        "name": "HAYWARD",
        "id": 579,
        "lat": 37.6591881,
        "lng": -122.0871176
    },
    {
        "name": "HEMET",
        "id": 635,
        "lat": 33.7475203,
        "lng": -116.9719684
    },
    {
        "name": "HOLLISTER",
        "id": 546,
        "lat": 36.8524545,
        "lng": -121.4016021
    },
    {
        "name": "HOLLYWOOD",
        "id": 508,
        "lat": 34.0928092,
        "lng": -118.3286614
    },
    {
        "name": "HOLLYWOOD WEST",
        "id": 652,
        "lat": 36.778261,
        "lng": -119.4179324
    },
    {
        "name": "INDIO",
        "id": 578,
        "lat": 33.7205771,
        "lng": -116.2155619
    },
    {
        "name": "INGLEWOOD",
        "id": 610,
        "lat": 33.9616801,
        "lng": -118.3531311
    },
    {
        "name": "JACKSON",
        "id": 521,
        "lat": 38.3488023,
        "lng": -120.7741018
    },
    {
        "name": "KING CITY",
        "id": 647,
        "lat": 36.2127439,
        "lng": -121.1260287
    },
    {
        "name": "LAGUNA HILLS",
        "id": 605,
        "lat": 33.590277,
        "lng": -117.6962824
    },
    {
        "name": "LAKE ISABELLA",
        "id": 687,
        "lat": 35.6180087,
        "lng": -118.473141
    },
    {
        "name": "LAKEPORT",
        "id": 530,
        "lat": 39.0429506,
        "lng": -122.9158293
    },
    {
        "name": "LANCASTER",
        "id": 595,
        "lat": 34.6867846,
        "lng": -118.1541632
    },
    {
        "name": "LINCOLN PARK",
        "id": 617,
        "lat": 36.778261,
        "lng": -119.4179324
    },
    {
        "name": "LODI",
        "id": 622,
        "lat": 38.1341477,
        "lng": -121.2722194
    },
    {
        "name": "LOMPOC",
        "id": 589,
        "lat": 34.6391501,
        "lng": -120.4579409
    },
    {
        "name": "LOMPOC DLPC",
        "id": 692,
        "lat": 36.778261,
        "lng": -119.4179324
    },
    {
        "name": "LONG BEACH",
        "id": 507,
        "lat": 33.7700504,
        "lng": -118.1937395
    },
    {
        "name": "LOS ANGELES",
        "id": 502,
        "lat": 33.7583263,
        "lng": -118.2931362
    },
    {
        "name": "LOS ANGELES DLPC",
        "id": 693,
        "lat": 36.778261,
        "lng": -119.4179324
    },
    {
        "name": "LOS BANOS",
        "id": 650,
        "lat": 37.0582786,
        "lng": -120.8499151
    },
    {
        "name": "LOS GATOS",
        "id": 640,
        "lat": 37.2358078,
        "lng": -121.9623751
    },
    {
        "name": "MADERA",
        "id": 533,
        "lat": 36.9613356,
        "lng": -120.0607176
    },
    {
        "name": "MANTECA",
        "id": 658,
        "lat": 37.7974273,
        "lng": -121.2160526
    },
    {
        "name": "MARIPOSA",
        "id": 566,
        "lat": 37.4849377,
        "lng": -119.9662843
    },
    {
        "name": "MERCED",
        "id": 536,
        "lat": 37.3021632,
        "lng": -120.4829677
    },
    {
        "name": "MODESTO",
        "id": 557,
        "lat": 37.63909719999999,
        "lng": -120.9968782
    },
    {
        "name": "MONTEBELLO",
        "id": 511,
        "lat": 34.0165053,
        "lng": -118.1137535
    },
    {
        "name": "MOUNT SHASTA",
        "id": 639,
        "lat": 41.3098746,
        "lng": -122.3105666
    },
    {
        "name": "NAPA",
        "id": 540,
        "lat": 38.2975381,
        "lng": -122.286865
    },
    {
        "name": "NEEDLES",
        "id": 584,
        "lat": 34.8480597,
        "lng": -114.6141315
    },
    {
        "name": "NEWHALL",
        "id": 662,
        "lat": 34.3847198,
        "lng": -118.5308652
    },
    {
        "name": "NORCO",
        "id": 586,
        "lat": 33.9311257,
        "lng": -117.548661
    },
    {
        "name": "NOVATO",
        "id": 686,
        "lat": 38.1074198,
        "lng": -122.5697032
    },
    {
        "name": "OAKLAND CLAREMONT",
        "id": 504,
        "lat": 37.8556246,
        "lng": -122.2441182
    },
    {
        "name": "OAKLAND COLISEUM",
        "id": 604,
        "lat": 37.7567466,
        "lng": -122.1930517
    },
    {
        "name": "OCEANSIDE",
        "id": 596,
        "lat": 33.1958696,
        "lng": -117.3794834
    },
    {
        "name": "OROVILLE",
        "id": 522,
        "lat": 39.5137752,
        "lng": -121.556359
    },
    {
        "name": "OXNARD",
        "id": 636,
        "lat": 34.1975048,
        "lng": -119.1770516
    },
    {
        "name": "PALM DESERT",
        "id": 683,
        "lat": 33.7222445,
        "lng": -116.3744556
    },
    {
        "name": "PALM SPRINGS",
        "id": 659,
        "lat": 33.8302961,
        "lng": -116.5452921
    },
    {
        "name": "PALMDALE",
        "id": 690,
        "lat": 34.5794343,
        "lng": -118.1164613
    },
    {
        "name": "PARADISE",
        "id": 601,
        "lat": 39.7596061,
        "lng": -121.6219177
    },
    {
        "name": "PASADENA",
        "id": 509,
        "lat": 34.1477849,
        "lng": -118.1445155
    },
    {
        "name": "PASO ROBLES",
        "id": 574,
        "lat": 35.6368759,
        "lng": -120.6545022
    },
    {
        "name": "PETALUMA",
        "id": 634,
        "lat": 38.232417,
        "lng": -122.6366524
    },
    {
        "name": "PITTSBURG",
        "id": 592,
        "lat": 38.0279762,
        "lng": -121.8846806
    },
    {
        "name": "PLACERVILLE",
        "id": 525,
        "lat": 38.7296252,
        "lng": -120.798546
    },
    {
        "name": "PLEASANTON",
        "id": 631,
        "lat": 37.6624312,
        "lng": -121.8746789
    },
    {
        "name": "POMONA",
        "id": 532,
        "lat": 34.055103,
        "lng": -117.7499909
    },
    {
        "name": "PORTERVILLE",
        "id": 573,
        "lat": 36.06523,
        "lng": -119.0167679
    },
    {
        "name": "POWAY",
        "id": 676,
        "lat": 32.9628232,
        "lng": -117.0358646
    },
    {
        "name": "QUINCY",
        "id": 544,
        "lat": 39.9368363,
        "lng": -120.9471764
    },
    {
        "name": "RANCHO CUCAMONGA",
        "id": 612,
        "lat": 34.10639889999999,
        "lng": -117.5931084
    },
    {
        "name": "RED BLUFF",
        "id": 558,
        "lat": 40.1784886,
        "lng": -122.2358302
    },
    {
        "name": "REDDING",
        "id": 551,
        "lat": 40.5865396,
        "lng": -122.3916754
    },
    {
        "name": "REDLANDS",
        "id": 626,
        "lat": 34.0555693,
        "lng": -117.1825381
    },
    {
        "name": "REDWOOD CITY",
        "id": 548,
        "lat": 37.48521520000001,
        "lng": -122.2363548
    },
    {
        "name": "REEDLEY",
        "id": 633,
        "lat": 36.5963395,
        "lng": -119.4504029
    },
    {
        "name": "RIDGECREST",
        "id": 577,
        "lat": 35.6224561,
        "lng": -117.6708966
    },
    {
        "name": "RIVERSIDE",
        "id": 545,
        "lat": 33.9533487,
        "lng": -117.3961564
    },
    {
        "name": "RIVERSIDE EAST",
        "id": 656,
        "lat": 36.778261,
        "lng": -119.4179324
    },
    {
        "name": "ROCKLIN",
        "id": 673,
        "lat": 38.7907339,
        "lng": -121.2357828
    },
    {
        "name": "ROSEVILLE",
        "id": 543,
        "lat": 38.7521235,
        "lng": -121.2880059
    },
    {
        "name": "SACRAMENTO",
        "id": 501,
        "lat": 38.5815719,
        "lng": -121.4943996
    },
    {
        "name": "SACRAMENTO SOUTH",
        "id": 602,
        "lat": 36.778261,
        "lng": -119.4179324
    },
    {
        "name": "SALINAS",
        "id": 539,
        "lat": 36.6777372,
        "lng": -121.6555013
    },
    {
        "name": "SAN ANDREAS",
        "id": 568,
        "lat": 38.1960298,
        "lng": -120.6804872
    },
    {
        "name": "SAN BERNARDINO",
        "id": 512,
        "lat": 34.1083449,
        "lng": -117.2897652
    },
    {
        "name": "SAN CLEMENTE",
        "id": 648,
        "lat": 33.4269728,
        "lng": -117.6119925
    },
    {
        "name": "SAN DIEGO",
        "id": 506,
        "lat": 32.715738,
        "lng": -117.1610838
    },
    {
        "name": "SAN DIEGO CLAIREMONT",
        "id": 519,
        "lat": 32.8239594,
        "lng": -117.1848787
    },
    {
        "name": "SAN FRANCISCO",
        "id": 503,
        "lat": 37.7749295,
        "lng": -122.4194155
    },
    {
        "name": "SAN JOSE",
        "id": 516,
        "lat": 37.3382082,
        "lng": -121.8863286
    },
    {
        "name": "SAN JOSE DLPC",
        "id": 645,
        "lat": 36.778261,
        "lng": -119.4179324
    },
    {
        "name": "SAN LUIS OBISPO",
        "id": 547,
        "lat": 35.2827524,
        "lng": -120.6596156
    },
    {
        "name": "SAN MARCOS",
        "id": 620,
        "lat": 33.1433723,
        "lng": -117.1661449
    },
    {
        "name": "SAN MATEO",
        "id": 593,
        "lat": 37.5629917,
        "lng": -122.3255254
    },
    {
        "name": "SAN PEDRO",
        "id": 619,
        "lat": 33.7583263,
        "lng": -118.2931362
    },
    {
        "name": "SAN YSIDRO",
        "id": 677,
        "lat": 32.555556,
        "lng": -117.0470434
    },
    {
        "name": "SANTA ANA",
        "id": 542,
        "lat": 33.7455731,
        "lng": -117.8678338
    },
    {
        "name": "SANTA BARBARA",
        "id": 549,
        "lat": 34.4130572,
        "lng": -119.7012871
    },
    {
        "name": "SANTA CLARA",
        "id": 632,
        "lat": 37.3541079,
        "lng": -121.9552356
    },
    {
        "name": "SANTA MARIA",
        "id": 563,
        "lat": 34.4130572,
        "lng": -119.7012871
    },
    {
        "name": "SANTA MONICA",
        "id": 616,
        "lat": 34.0194543,
        "lng": -118.4911912
    },
    {
        "name": "SANTA PAULA",
        "id": 630,
        "lat": 34.3541659,
        "lng": -119.0592705
    },
    {
        "name": "SANTA ROSA",
        "id": 555,
        "lat": 38.440429,
        "lng": -122.7140548
    },
    {
        "name": "SANTA TERESA",
        "id": 668,
        "lat": 36.778261,
        "lng": -119.4179324
    },
    {
        "name": "SEASIDE",
        "id": 567,
        "lat": 36.6149217,
        "lng": -121.822098
    },
    {
        "name": "SHAFTER",
        "id": 660,
        "lat": 35.5005139,
        "lng": -119.2717761
    },
    {
        "name": "SIMI VALLEY",
        "id": 680,
        "lat": 34.2694474,
        "lng": -118.781482
    },
    {
        "name": "SONORA",
        "id": 569,
        "lat": 37.9829496,
        "lng": -120.3821724
    },
    {
        "name": "SOUTH LAKE TAHOE",
        "id": 538,
        "lat": 38.939926,
        "lng": -119.9771868
    },
    {
        "name": "STANTON DLPC",
        "id": 698,
        "lat": 36.778261,
        "lng": -119.4179324
    },
    {
        "name": "STOCKTON",
        "id": 517,
        "lat": 37.9577016,
        "lng": -121.2907796
    },
    {
        "name": "SUSANVILLE",
        "id": 531,
        "lat": 40.4162842,
        "lng": -120.6530063
    },
    {
        "name": "TAFT",
        "id": 575,
        "lat": 35.1424671,
        "lng": -119.4565078
    },
    {
        "name": "TEMECULA",
        "id": 672,
        "lat": 33.4936391,
        "lng": -117.1483648
    },
    {
        "name": "THOUSAND OAKS",
        "id": 663,
        "lat": 34.1705609,
        "lng": -118.8375937
    },
    {
        "name": "TORRANCE",
        "id": 608,
        "lat": 33.8358492,
        "lng": -118.3406288
    },
    {
        "name": "TRACY",
        "id": 642,
        "lat": 37.7396513,
        "lng": -121.4252227
    },
    {
        "name": "TRUCKEE",
        "id": 513,
        "lat": 39.3252283,
        "lng": -120.2073992
    },
    {
        "name": "TULARE",
        "id": 594,
        "lat": 36.2077288,
        "lng": -119.3473379
    },
    {
        "name": "TULELAKE",
        "id": 553,
        "lat": 41.9559884,
        "lng": -121.4774916
    },
    {
        "name": "TURLOCK",
        "id": 649,
        "lat": 37.4946568,
        "lng": -120.8465941
    },
    {
        "name": "TWENTYNINE PALMS",
        "id": 638,
        "lat": 34.1355582,
        "lng": -116.0541689
    },
    {
        "name": "UKIAH",
        "id": 535,
        "lat": 39.1501709,
        "lng": -123.2077831
    },
    {
        "name": "VACAVILLE",
        "id": 588,
        "lat": 38.3565773,
        "lng": -121.9877444
    },
    {
        "name": "VALLEJO",
        "id": 554,
        "lat": 38.1040864,
        "lng": -122.2566367
    },
    {
        "name": "VAN NUYS",
        "id": 515,
        "lat": 34.1898566,
        "lng": -118.451357
    },
    {
        "name": "VENTURA",
        "id": 560,
        "lat": 34.274646,
        "lng": -119.2290316
    },
    {
        "name": "VICTORVILLE",
        "id": 629,
        "lat": 34.5362184,
        "lng": -117.2927641
    },
    {
        "name": "VISALIA",
        "id": 559,
        "lat": 36.3302284,
        "lng": -119.2920585
    },
    {
        "name": "WALNUT CREEK",
        "id": 624,
        "lat": 37.9100783,
        "lng": -122.0651819
    },
    {
        "name": "WATSONVILLE",
        "id": 583,
        "lat": 36.910231,
        "lng": -121.7568946
    },
    {
        "name": "WEAVERVILLE",
        "id": 572,
        "lat": 40.7309778,
        "lng": -122.9419708
    },
    {
        "name": "WEST COVINA",
        "id": 618,
        "lat": 34.0686208,
        "lng": -117.9389526
    },
    {
        "name": "WESTMINSTER",
        "id": 611,
        "lat": 33.7513419,
        "lng": -117.9939921
    },
    {
        "name": "WHITTIER",
        "id": 591,
        "lat": 33.9791793,
        "lng": -118.032844
    },
    {
        "name": "WILLOWS",
        "id": 571,
        "lat": 39.5243265,
        "lng": -122.1935931
    },
    {
        "name": "WINNETKA",
        "id": 637,
        "lat": 34.2048586,
        "lng": -118.5739621
    },
    {
        "name": "WOODLAND",
        "id": 561,
        "lat": 38.67851570000001,
        "lng": -121.7732971
    },
    {
        "name": "YREKA",
        "id": 552,
        "lat": 41.7354186,
        "lng": -122.6344708
    },
    {
        "name": "YUBA CITY",
        "id": 562,
        "lat": 39.1404477,
        "lng": -121.6169108
    }
]